City_ID,City,Lat,Lng,Max Temp,Humidity,Cloudiness,Wind Speed,Country,Date
0,qaanaaq,77.484,-69.3632,-21.41,57,18,3.56,GL,1699936121
1,kysyl-syr,63.8986,122.7617,-12.47,95,100,2.2,RU,1699936122
2,guerrero negro,27.9769,-114.0611,20.15,60,100,4.18,MX,1699935962
3,raudeberg,61.9875,5.1352,4.93,1,4,2.68,NO,1699936123
4,batagay,67.6333,134.6333,-21.03,90,100,2.48,RU,1699936124
5,punta arenas,-53.15,-70.9167,3.06,70,20,8.23,CL,1699936125
6,mahebourg,-20.4081,57.7,26.81,78,40,3.6,MU,1699936125
7,castro,-24.7911,-50.0119,20.61,67,19,0.58,BR,1699936126
8,saint-philippe,-21.3585,55.7679,26.77,77,53,3.33,RE,1699936126
9,yellowknife,62.456,-114.3525,-3.71,86,100,5.66,CA,1699936069
10,shelburne,44.0787,-80.2041,3.75,86,66,7.44,CA,1699936128
11,muravlenko,63.7898,74.523,-12.09,92,100,4.22,RU,1699936128
12,butaritari,3.0707,172.7902,27.9,81,100,5.55,KI,1699936129
13,bengkulu,-3.8004,102.2655,27.87,79,88,2.86,ID,1699936059
14,waitati,-45.75,170.5667,16.56,65,90,2.32,NZ,1699936130
15,prince rupert,54.3161,-130.3201,7.05,67,75,5.14,CA,1699935865
16,dunedin,-45.8742,170.5036,16.56,65,100,2.68,NZ,1699935970
17,georgetown,5.4112,100.3354,30.96,74,20,3.09,MY,1699935931
18,avarua,-21.2078,-159.775,23.03,64,40,3.09,CK,1699936132
19,hilo,19.7297,-155.09,22.85,93,40,2.06,US,1699935859
20,tiksi,71.6872,128.8694,-14.58,94,100,1.94,RU,1699935927
21,bethel,41.3712,-73.414,4.79,82,0,1.54,US,1699935861
22,rikitea,-23.1203,-134.9692,24.45,84,96,5.75,PF,1699936135
23,sabang,5.8933,95.3214,26.69,83,100,5.94,ID,1699936135
24,lavrentiya,65.5833,-171.0,-7.95,83,68,6.36,RU,1699936136
25,dikson,73.5069,80.5464,-6.85,94,100,8.91,RU,1699936137
26,atuona,-9.8,-139.0333,26.85,75,13,6.0,PF,1699936137
27,port alfred,-33.5906,26.891,13.99,94,79,5.57,ZA,1699936138
28,kahului,20.8947,-156.47,26.02,71,40,6.69,US,1699936138
29,ushuaia,-54.8,-68.3,0.81,75,0,2.06,AR,1699935930
30,kota kinabalu,5.9749,116.0724,32.99,70,20,2.06,MY,1699936140
31,iqaluit,63.7506,-68.5145,-17.95,59,0,3.09,CA,1699935947
32,puerto ayora,-0.7393,-90.3518,23.08,100,78,3.13,EC,1699935894
33,thompson,55.7435,-97.8558,-2.91,93,75,1.54,CA,1699935979
34,hobart,-42.8794,147.3294,19.03,50,40,9.26,AU,1699936023
35,port elizabeth,-33.918,25.5701,17.4,78,75,5.14,ZA,1699935882
36,cidreira,-30.1811,-50.2056,20.11,96,100,2.06,BR,1699935875
37,chokurdakh,70.6333,147.9167,-13.29,94,100,5.91,RU,1699936144
38,airai,-8.9266,125.4092,27.26,39,23,1.19,TL,1699936145
39,mataura,-46.1927,168.8643,9.15,63,59,5.13,NZ,1699936146
40,albany,42.6001,-73.9662,1.84,87,72,0.88,US,1699936010
41,acajutla,13.5928,-89.8275,26.97,79,98,1.65,SV,1699936147
42,busselton,-33.65,115.3333,21.89,60,95,5.56,AU,1699936148
43,ambon,-3.6954,128.1814,32.08,62,20,3.6,ID,1699936149
44,vaini,-21.2,-175.2,23.09,94,75,8.23,TO,1699936150
45,ribeira grande,38.5167,-28.7,15.99,82,100,2.24,PT,1699935932
46,kapaa,22.0752,-159.319,27.99,81,20,7.72,US,1699936151
47,aykhal,66.0,111.5,-8.69,94,100,3.9,RU,1699936152
48,birnin kebbi,12.4539,4.1975,22.19,14,16,4.27,NG,1699936153
49,jamestown,42.097,-79.2353,7.77,67,0,5.66,US,1699936063
50,nakusp,50.2499,-117.8023,3.19,93,63,0.0,CA,1699936154
51,gikongoro,-2.464,29.5739,13.17,92,91,1.25,RW,1699936155
52,bluff,-46.6,168.3333,9.33,84,95,12.17,NZ,1699936156
53,padang,-0.9492,100.3543,29.03,84,47,1.57,ID,1699935988
54,sao joao evangelista,-18.5478,-42.7633,22.45,55,69,0.78,BR,1699936157
55,isangel,-19.55,169.2667,28.06,57,75,4.63,VU,1699936158
56,faya,18.3851,42.4509,13.06,70,59,1.1,SA,1699936158
57,nikolskoye,59.7035,30.7861,1.63,98,100,2.36,RU,1699936159
58,pappadatai,39.3133,20.7925,9.35,74,11,1.64,GR,1699936160
59,tuktoyaktuk,69.4541,-133.0374,-14.0,78,100,7.72,CA,1699936160
60,khatanga,71.9667,102.5,-23.99,93,99,2.12,RU,1699936161
61,palana,59.1167,159.9667,-9.63,82,32,3.58,RU,1699936162
62,corner brook,48.9667,-57.9484,-0.91,93,58,0.97,CA,1699935918
63,mount isa,-20.7333,139.5,38.87,13,0,7.72,AU,1699935921
64,cabo san lucas,22.8909,-109.9124,27.09,64,20,1.66,MX,1699936164
65,lata,40.1629,-8.3327,13.93,95,58,1.06,PT,1699935976
66,hasaki,35.7333,140.8333,17.22,33,0,1.56,JP,1699936123
67,carballo,43.213,-8.691,18.83,93,100,6.51,ES,1699936166
68,lashio,22.9333,97.75,24.76,65,67,0.68,MM,1699936166
69,shirokiy,49.758,129.523,-5.69,75,14,1.7,RU,1699936167
70,ahuimanu,21.4447,-157.8378,26.84,75,40,6.69,US,1699936168
71,floro,61.5996,5.0328,5.54,70,7,4.12,NO,1699936169
72,port hardy,50.6996,-127.4199,8.0,100,75,2.06,CA,1699936170
73,bhandara,21.1667,79.65,24.2,49,100,2.56,IN,1699936170
74,shingu,33.7333,135.9833,16.22,45,3,0.65,JP,1699936171
75,kieta,-6.2167,155.6333,29.65,63,99,1.89,PG,1699936172
76,sabha,27.0377,14.4283,16.81,61,4,4.3,LY,1699936173
77,ghanzi,-21.5667,21.7833,25.01,27,19,4.0,BW,1699936173
78,hermanus,-34.4187,19.2345,14.7,82,57,7.47,ZA,1699936174
79,torbay,47.6666,-52.7314,-0.14,83,100,2.06,CA,1699936175
80,hamilton,39.1834,-84.5333,9.98,56,0,0.89,US,1699935923
81,zhigansk,66.7697,123.3711,-15.12,95,100,10.22,RU,1699936176
82,marigot,18.0667,-63.0833,27.8,89,40,3.6,MF,1699936177
83,barrow,71.2906,-156.7887,-6.73,88,77,5.81,US,1699936178
84,panjab,34.388,67.0233,3.69,26,3,0.37,AF,1699936178
85,provideniya,64.3833,-173.3,-4.8,80,100,12.07,RU,1699936179
86,hualmay,-11.0964,-77.6139,19.26,88,25,5.08,PE,1699936180
87,norman wells,65.282,-126.8329,-20.98,84,40,1.54,CA,1699936180
88,cherskiy,68.75,161.3,-20.74,99,100,5.55,RU,1699936182
89,lasa,46.6166,10.7002,10.9,92,84,2.3,IT,1699936183
90,saint george,37.1041,-113.5841,17.46,26,0,0.45,US,1699936183
91,darasun,51.6667,114.0,-5.01,60,74,1.71,RU,1699936184
92,aloleng,16.1307,119.7824,30.36,63,96,3.36,PH,1699936184
93,salalah,17.0151,54.0924,27.05,89,40,1.54,OM,1699936037
94,husavik,66.0449,-17.3389,-1.18,88,18,5.28,IS,1699936186
95,kaitangata,-46.2817,169.8464,18.27,44,27,7.01,NZ,1699936186
96,shangrao,28.4532,117.9686,14.49,54,5,0.11,CN,1699936187
97,san julian,21.0167,-102.1667,18.89,53,99,2.75,MX,1699936187
98,luderitz,-26.6481,15.1594,15.9,75,0,2.49,NA,1699936188
99,saldanha,-33.0117,17.9442,19.03,66,16,2.88,ZA,1699936189
100,cabedelo,-6.9811,-34.8339,26.37,79,82,4.05,BR,1699936191
101,eydhafushi,5.1033,73.0708,27.4,76,93,1.43,MV,1699936192
102,harper,4.375,-7.7169,25.29,88,6,1.8,LR,1699936106
103,hofn,64.2539,-15.2082,4.58,86,85,6.35,IS,1699936193
104,qaqortoq,60.7167,-46.0333,-6.93,94,95,1.61,GL,1699935921
105,bada,51.392,109.8717,-4.06,64,100,1.57,RU,1699936194
106,tomatlan,19.9333,-105.25,24.3,85,8,1.16,MX,1699936195
107,namatanai,-3.6667,152.4333,29.81,59,23,2.04,PG,1699936196
108,mortka,59.3322,66.0214,1.58,97,100,5.01,RU,1699936196
109,erzin,36.9559,36.2,17.58,74,93,1.57,TR,1699936197
110,riberalta,-10.9833,-66.1,27.09,63,40,1.17,BO,1699936198
111,rio tuba,8.5061,117.4317,29.55,73,100,5.73,PH,1699936198
112,yumen,40.2833,97.2,4.15,28,86,12.06,CN,1699936199
113,tefe,-3.3542,-64.7114,26.42,74,95,0.5,BR,1699936200
114,riyadh,24.6877,46.7219,20.08,47,75,3.14,SA,1699936170
115,chuy,-33.6971,-53.4616,15.82,93,100,3.11,UY,1699936202
116,richards bay,-28.783,32.0377,17.96,75,100,4.74,ZA,1699936203
117,sorland,67.667,12.6934,2.92,63,6,8.52,NO,1699936204
118,aklavik,68.2191,-135.0107,-12.93,96,100,1.65,CA,1699936206
119,eureka,40.8021,-124.1637,13.44,94,100,0.45,US,1699936207
120,boa vista,2.8197,-60.6733,28.99,61,0,3.09,BR,1699936208
121,severo-kurilsk,50.6789,156.125,1.27,67,100,4.18,RU,1699936209
122,chicama,-7.8447,-79.1469,18.3,84,39,2.56,PE,1699936211
123,caravelas,-17.7125,-39.2481,24.2,83,28,5.22,BR,1699936212
124,gillette,44.2911,-105.5022,13.51,18,0,9.77,US,1699936164
125,tasiilaq,65.6145,-37.6368,2.09,63,100,9.1,GL,1699936214
126,calabozo,8.9242,-67.4293,24.58,77,67,2.3,VE,1699936215
127,cape town,-33.9258,18.4232,17.27,57,0,3.09,ZA,1699936215
128,saint-pierre,-21.3393,55.4781,26.82,47,52,2.57,RE,1699936216
129,bima,-8.4667,118.7167,33.25,55,48,1.3,ID,1699936217
130,iquique,-20.2208,-70.1431,19.02,77,36,0.82,CL,1699936218
131,moron,-34.6534,-58.6198,16.86,70,50,0.97,AR,1699936219
132,bambous virieux,-20.3428,57.7575,26.79,78,40,3.6,MU,1699936220
133,bathsheba,13.2167,-59.5167,27.34,83,40,9.26,BB,1699936221
134,zhanaozen,43.3,52.8,12.08,52,22,8.23,KZ,1699936221
135,nishihara,26.1842,127.7558,23.81,54,75,5.66,JP,1699936222
136,roma,43.2128,-75.4557,4.93,90,100,2.57,US,1699936012
137,esperance,-33.8667,121.9,21.74,64,57,9.55,AU,1699936224
138,loksa,59.5764,25.7214,1.07,88,100,3.8,EE,1699936225
139,bridgetown,13.1,-59.6167,27.27,83,40,9.26,BB,1699936225
140,dong hoi,17.4833,106.6,21.21,91,100,3.64,VN,1699936227
141,bandarbeyla,9.4942,50.8122,27.89,76,91,8.07,SO,1699936228
142,victoria,22.2855,114.1577,22.36,74,98,4.02,HK,1699935977
143,ariquemes,-9.9133,-63.0408,23.85,88,54,1.09,BR,1699936229
144,kavaratti,10.5669,72.642,27.64,69,70,1.01,IN,1699936231
145,katsuura,35.1333,140.3,14.55,44,16,2.09,JP,1699936061
146,granard,53.7667,-7.5,8.77,92,100,5.05,IE,1699936234
147,la roda,39.2167,-2.15,11.61,81,96,3.43,ES,1699936235
148,new norfolk,-42.7826,147.0587,18.29,27,4,2.59,AU,1699936235
149,khani,41.9563,42.9566,14.76,54,91,2.7,GE,1699936236
150,shubarshi,48.5872,57.1869,5.78,69,91,7.87,KZ,1699936237
151,egvekinot,66.3167,-179.1667,-18.01,78,41,4.22,RU,1699936238
152,teahupoo,-17.8333,-149.2667,24.98,88,95,7.21,PF,1699936239
153,carnarvon,-24.8667,113.6333,23.32,62,86,5.05,AU,1699936239
154,shrewsbury,52.7101,-2.7521,11.49,89,75,2.57,GB,1699936240
155,sao filipe,14.8961,-24.4956,25.96,71,98,2.61,CV,1699936241
156,ponta do sol,32.6667,-17.1,19.84,77,6,1.72,PT,1699936242
157,mount gambier,-37.8333,140.7667,17.83,49,100,3.82,AU,1699936217
158,east london,-33.0153,27.9116,14.52,94,75,1.54,ZA,1699936049
159,coahuayana,18.7333,-103.6833,25.42,84,11,1.35,MX,1699936244
160,bergerac,44.8333,0.5,17.74,94,100,2.06,FR,1699936245
161,pisco,-13.7,-76.2167,18.34,88,5,0.0,PE,1699936245
162,pevek,69.7008,170.3133,-21.64,97,97,4.89,RU,1699936246
163,vytegra,61.0064,36.4481,1.31,99,100,1.79,RU,1699936247
164,arraial do cabo,-22.9661,-42.0278,23.45,91,57,5.92,BR,1699936186
165,jaunjelgava,56.6167,25.0833,1.72,96,83,1.71,LV,1699936248
166,amalapuram,16.5833,82.0167,28.39,60,99,3.97,IN,1699936249
167,anchorage,61.2181,-149.9003,-1.71,92,0,2.06,US,1699936207
168,umtata,-31.5889,28.7844,11.31,93,100,4.63,ZA,1699936250
169,ancud,-41.8697,-73.8203,5.69,71,31,3.3,CL,1699936251
170,bubaque,11.2833,-15.8333,27.84,67,30,3.39,GW,1699936252
171,igra,57.5558,53.0547,4.42,85,100,5.65,RU,1699936253
172,jiexiu,37.0244,111.9125,9.51,27,0,2.21,CN,1699936253
173,ahipara,-35.1667,173.1667,17.68,94,98,6.28,NZ,1699936255
174,turayf,31.6725,38.6637,18.14,39,0,3.09,SA,1699936255
175,kingsville,27.5159,-97.8561,17.23,94,100,3.09,US,1699936257
176,garachine,8.0647,-78.3628,26.3,89,100,1.88,PA,1699936257
177,grand gaube,-20.0064,57.6608,26.88,68,9,3.13,MU,1699936258
178,kununurra,-15.7667,128.7333,36.99,39,58,5.66,AU,1699936259
179,kostyantynivka,48.5277,37.7069,4.94,75,98,1.65,UA,1699936259
180,canavieiras,-15.675,-38.9472,22.98,87,9,2.94,BR,1699936260
181,sitka,57.0531,-135.33,5.94,81,100,6.69,US,1699936261
182,mumford,5.2618,-0.759,26.03,87,7,1.89,GH,1699936261
183,lompoc,34.6391,-120.4579,13.29,87,0,3.6,US,1699936262
184,acapulco,16.8634,-99.8901,28.9,79,0,3.09,MX,1699936263
185,belmopan,17.25,-88.7667,24.21,99,89,0.64,BZ,1699936264
186,pokrovsk,48.282,37.1758,4.15,76,92,2.16,UA,1699936265
187,chau doc,10.7,105.1167,31.45,60,79,4.01,VN,1699936265
188,whitehorse,60.7161,-135.0538,-5.57,85,75,2.06,CA,1699936266
189,sao joao da barra,-21.6403,-41.0511,23.51,91,59,2.79,BR,1699936267
190,olafsvik,64.8945,-23.7142,5.45,67,86,8.85,IS,1699936268
191,zhangye,38.9342,100.4517,6.32,24,61,7.59,CN,1699936269
192,odweyne,9.4092,45.064,23.72,44,31,1.33,SO,1699936270
193,pandan,14.0453,124.1694,27.59,86,91,7.38,PH,1699935992
194,kloulklubed,7.0419,134.2556,29.28,78,95,4.4,PW,1699936272
195,lebu,-37.6167,-73.65,9.1,89,34,3.52,CL,1699935983
196,shenavan,40.0549,43.9288,10.32,66,75,1.03,AM,1699936273
197,ilhabela,-23.7781,-45.3581,24.18,94,47,1.98,BR,1699936274
198,tchibanga,-2.85,11.0333,22.95,98,100,0.74,GA,1699936274
199,taltal,-25.4,-70.4833,16.65,74,39,0.52,CL,1699936120
200,tuatapere,-46.1333,167.6833,8.46,95,100,5.98,NZ,1699936276
201,bantry,51.6833,-9.45,12.1,89,100,8.44,IE,1699936276
202,broome,42.2506,-75.833,3.78,81,14,0.89,US,1699936277
203,namibe,-15.1961,12.1522,22.2,70,93,2.0,AO,1699936278
204,gryazovets,58.88,40.2525,2.33,96,100,5.11,RU,1699936279
205,pareora,-44.4871,171.2132,18.99,75,59,5.38,NZ,1699936279
206,suez,29.9737,32.5263,19.89,87,0,2.99,EG,1699936280
207,upernavik,72.7868,-56.1549,-17.79,68,0,3.34,GL,1699936228
208,atar,20.5169,-13.0499,24.28,14,5,4.4,MR,1699936282
209,san patricio,28.017,-97.5169,17.13,89,100,4.81,US,1699936282
210,pangnirtung,66.1451,-65.7125,-16.73,72,0,3.12,CA,1699936283
211,broken hill,-31.95,141.4333,28.29,21,69,3.31,AU,1699936284
212,kpandu,6.9954,0.2931,24.34,88,3,1.76,GH,1699936285
213,makaha,21.4694,-158.2175,26.95,64,40,2.57,US,1699936285
214,rocha,-34.4833,-54.3333,14.51,85,100,2.14,UY,1699936076
215,lusambo,-4.9667,23.45,20.63,99,100,1.23,CD,1699936287
216,bredasdorp,-34.5322,20.0403,15.88,78,48,6.78,ZA,1699936287
217,cam ranh,11.9214,109.1591,24.98,100,75,4.12,VN,1699936288
218,grindavik,63.8424,-22.4338,7.26,65,75,6.69,IS,1699936158
219,evensk,61.95,159.2333,-17.79,74,8,5.02,RU,1699936289
220,oga,46.4631,10.347,3.3,86,82,0.97,IT,1699936290
221,adrar,20.5022,-10.0711,21.18,21,28,4.91,MR,1699936291
222,benjamin aceval,-24.9667,-57.5667,26.08,92,100,1.23,PY,1699936292
223,souillac,-20.5167,57.5167,25.21,78,40,3.6,MU,1699936292
224,ponnani,10.767,75.9252,26.62,57,95,1.55,IN,1699936293
225,doha,25.2867,51.5333,26.99,61,3,2.57,QA,1699936294
226,klaksvik,62.2266,-6.589,6.51,66,69,9.68,FO,1699936295
227,fairbanks,64.8378,-147.7164,-3.02,91,100,0.0,US,1699936296
228,novodugino,55.6305,34.2842,1.42,97,100,4.39,RU,1699936296
229,kulunda,52.566,78.9385,4.19,78,93,3.95,RU,1699936297
230,hithadhoo,-0.6,73.0833,27.6,79,64,4.81,MV,1699936298
231,hambantota,6.1241,81.1185,27.19,100,75,1.54,LK,1699936299
232,polunochnoye,60.8697,60.4153,0.3,81,100,2.0,RU,1699936299
233,salinopolis,-0.6136,-47.3561,25.71,82,70,3.7,BR,1699936300
234,hami,42.8,93.45,6.64,26,67,1.3,CN,1699936301
235,kruisfontein,-34.0033,24.7314,14.8,70,29,4.39,ZA,1699936301
236,buraydah,26.326,43.975,19.25,40,61,4.05,SA,1699936302
237,viedma,-40.8135,-62.9967,15.53,41,66,7.56,AR,1699936303
238,ormara,25.2088,64.6357,24.96,53,0,2.46,PK,1699936041
239,lorengau,-2.0226,147.2712,28.27,77,97,3.0,PG,1699936159
240,corinto,37.9407,22.9573,15.68,76,63,1.12,GR,1699936305
241,kodinsk,58.6881,99.1844,0.8,88,100,5.02,RU,1699936306
242,quelimane,-17.8786,36.8883,22.97,88,40,0.0,MZ,1699936306
243,sola,-13.8833,167.55,25.7,75,100,8.96,VU,1699936308
244,misratah,32.3754,15.0925,21.53,69,49,4.89,LY,1699936308
245,pacific grove,36.6177,-121.9166,12.59,85,0,3.09,US,1699936309
246,tual,-5.6667,132.75,27.88,73,48,3.24,ID,1699936063
247,bhongir,17.5108,78.8889,27.61,62,29,2.33,IN,1699936312
248,sakaiminato,35.55,133.2333,15.96,58,40,3.09,JP,1699936312
249,antofagasta,-23.65,-70.4,16.6,77,25,2.92,CL,1699936313
250,seddon,-37.8068,144.8916,18.09,62,75,3.6,AU,1699936314
251,faanui,-16.4833,-151.75,27.01,83,72,7.92,PF,1699936314
252,coquimbo,-29.9533,-71.3436,13.85,82,1,2.06,CL,1699936133
253,borogontsy,62.6683,131.1683,-20.73,97,95,1.44,RU,1699936315
254,shimoda,34.6667,138.95,17.2,68,76,1.8,JP,1699936316
255,kyabe,9.4515,18.9449,25.07,65,89,0.08,TD,1699936317
256,iskateley,67.6803,53.1512,-7.77,96,100,4.02,RU,1699936318
257,sur,22.5667,59.5289,26.82,40,25,1.42,OM,1699936319
258,phan thiet,10.9333,108.1,30.99,64,56,7.53,VN,1699936320
259,zhuanghe,39.7008,122.9911,7.0,48,95,0.93,CN,1699936320
260,novobirilyussy,56.9514,90.6661,-3.14,80,63,3.93,RU,1699936321
261,lewiston,44.1003,-70.2148,1.31,89,100,0.0,US,1699936322
262,kjopsvik,68.097,16.3742,-12.07,50,1,3.68,NO,1699936322
263,omboue,-1.5746,9.2618,25.06,90,90,2.39,GA,1699936323
264,bozhou,33.8772,115.7703,11.77,34,0,2.86,CN,1699936248
265,awka,6.2101,7.0741,24.05,93,100,0.78,NG,1699936324
266,meulaboh,4.1363,96.1285,25.4,91,100,2.69,ID,1699936325
267,eatonton,33.3268,-83.3885,10.6,91,100,1.44,US,1699936326
268,vao,-22.6667,167.4833,21.56,65,62,8.18,NC,1699936326
269,kodiak,57.79,-152.4072,5.73,45,75,8.23,US,1699936327
270,nome,64.5011,-165.4064,1.04,80,75,7.72,US,1699936328
271,korla,41.7597,86.1469,6.76,25,35,4.13,CN,1699936107
272,vardo,70.3705,31.1107,-1.01,86,88,3.09,NO,1699936329
273,siaya,0.0612,34.2882,19.1,82,32,1.55,KE,1699936330
274,dasoguz,41.8363,59.9666,2.97,70,0,5.14,TM,1699936330
275,bilibino,68.0546,166.4372,-29.23,100,100,0.77,RU,1699936331
276,rawson,-43.3002,-65.1023,9.47,33,39,14.16,AR,1699936332
277,marawi,7.9986,124.2928,27.81,65,51,2.79,PH,1699936332
278,avera,33.194,-82.5271,9.65,59,100,2.36,US,1699936333
279,dalbandin,28.8947,64.4101,20.59,22,32,2.79,PK,1699936334
280,saint anthony,45.0205,-93.218,10.03,45,0,4.47,US,1699936334
281,constitucion,-35.3333,-72.4167,9.2,79,22,4.39,CL,1699936257
282,rio gallegos,-51.6226,-69.2181,2.03,69,0,7.2,AR,1699936336
283,kampong chhnang,12.1667,104.55,31.7,57,81,5.55,KH,1699936337
284,mandalgovi,45.7625,106.2708,-0.32,18,26,2.53,MN,1699936338
285,nalut,30.3333,10.85,15.06,57,0,3.81,LY,1699936338
286,leningradskiy,69.3833,178.4167,-16.32,80,99,16.54,RU,1699936159
287,matara,5.9485,80.5353,26.41,88,99,1.65,LK,1699936340
288,margate,51.3813,1.3862,13.28,81,78,5.36,GB,1699936271
289,camden,39.7835,-74.9663,5.92,87,4,2.92,US,1699936341
290,pyaozerskiy,65.8333,31.1667,-8.86,93,81,4.22,RU,1699936342
291,chamrajnagar,11.9167,76.95,24.54,67,87,2.71,IN,1699936343
292,lavumisa,-27.31,31.892,16.04,93,100,1.73,SZ,1699936343
293,shitanjing,39.2342,106.3439,4.97,23,21,0.48,CN,1699936344
294,ornskoldsvik,63.2909,18.7153,-9.47,92,100,3.09,SE,1699936345
295,moussoro,13.6408,16.4901,28.12,21,88,7.32,TD,1699936345
296,uyemskiy,64.4743,40.8524,-3.28,94,97,2.79,RU,1699936346
297,almeria,37.1667,-2.3333,11.91,42,97,1.8,ES,1699936347
298,minot,48.2325,-101.2963,4.12,70,0,5.14,US,1699936347
299,lao cai,22.4833,103.95,21.76,78,97,1.01,VN,1699936348
300,mantua,45.1667,10.7833,7.81,91,98,0.87,IT,1699936349
301,venado tuerto,-33.7456,-61.9688,11.82,82,0,2.28,AR,1699936350
302,port blair,11.6667,92.75,28.02,83,100,2.06,IN,1699936351
303,trairi,-3.2778,-39.2689,25.75,79,92,3.57,BR,1699936276
304,zhanjiang,21.2815,110.3427,21.97,64,56,3.44,CN,1699936352
305,kaeo,-35.1,173.7833,17.66,91,97,5.19,NZ,1699936352
306,camacha,33.0833,-16.3333,16.68,77,75,2.57,PT,1699936353
307,vylkove,45.4021,29.586,6.52,55,15,4.33,UA,1699936354
308,goderich,43.7501,-81.7165,7.73,70,100,8.75,CA,1699936355
309,dingle,10.9995,122.6711,25.73,91,100,4.1,PH,1699936356
310,kudahuvadhoo,2.6708,72.8944,27.65,74,61,1.8,MV,1699936356
311,lukovit,43.2,24.1667,2.7,62,17,2.05,BG,1699936357
312,stephenville,32.2207,-98.2023,13.07,69,100,0.0,US,1699936358
313,jizan,17.3333,42.6667,27.52,69,14,2.25,SA,1699936358
314,valparaiso,-33.0393,-71.6273,12.8,71,0,0.51,CL,1699936244
315,ostrovnoy,68.0531,39.5131,-1.85,74,65,6.18,RU,1699936360
316,yekepa,7.5753,-8.5419,20.1,81,26,0.55,LR,1699936360
317,mar del plata,-38.0023,-57.5575,13.38,57,54,5.36,AR,1699936262
318,geraldton,-28.7667,114.6,26.23,61,43,5.14,AU,1699936063
319,san andres,12.5847,-81.7006,26.01,94,20,2.06,CO,1699936362
320,ixtapa,20.7,-105.2,26.57,83,0,1.03,MX,1699936363
321,roald,62.5833,6.1333,2.09,80,1,2.57,NO,1699936364
322,riviere-au-renard,48.9957,-64.3971,-1.84,72,99,1.04,CA,1699936365
323,edd,13.9297,41.6925,30.82,43,85,5.13,ER,1699936366
324,gornopravdinsk,60.05,69.9,0.58,94,100,5.87,RU,1699936366
325,yulara,-25.2406,130.9889,35.63,18,63,3.39,AU,1699936368
326,isla mujeres,21.2311,-86.731,25.09,82,100,6.02,MX,1699936368
327,usinsk,65.9939,57.5281,-7.18,83,100,2.24,RU,1699936369
328,half moon bay,37.4636,-122.4286,15.33,78,100,4.12,US,1699936370
329,kavieng,-2.5744,150.7967,28.88,67,48,2.15,PG,1699936370
330,srednekolymsk,67.45,153.6833,-22.48,94,76,4.15,RU,1699936371
331,churapcha,62.0025,132.4325,-19.74,97,85,1.22,RU,1699936371
332,agirish,61.9247,63.0231,-1.82,97,100,3.71,RU,1699936372
333,altamira,-3.2033,-52.2064,27.19,48,92,1.59,BR,1699936373
334,san borja,-14.8167,-66.85,28.88,56,86,0.53,BO,1699936374
335,ternate,0.8,127.4,29.65,67,91,3.07,ID,1699936374
336,koslan,63.4564,48.8989,-0.88,94,100,4.92,RU,1699936375
337,fortuna,40.5982,-124.1573,13.29,95,100,0.45,US,1699936376
338,gueugnon,46.6036,4.0629,13.88,99,100,3.29,FR,1699936376
339,longyearbyen,78.2186,15.6401,-11.09,73,40,2.57,SJ,1699936317
340,drovyanaya,51.5833,113.0333,-3.91,60,73,1.68,RU,1699936378
341,mehamn,71.0357,27.8492,0.97,86,100,6.17,NO,1699936378
342,ayaviri,-14.8864,-70.5889,9.83,71,98,0.7,PE,1699936379
343,nacala,-14.5428,40.6728,27.39,73,77,4.1,MZ,1699936380
344,orocue,4.7912,-71.3354,24.53,91,41,2.18,CO,1699936381
345,rubiera,44.6541,10.7787,8.74,82,100,0.42,IT,1699936382
346,nantucket,41.2835,-70.0995,3.89,86,100,0.0,US,1699936383
347,urucui,-7.2294,-44.5561,26.43,40,0,1.12,BR,1699936383
348,andenes,69.3143,16.1194,-2.26,86,0,4.12,NO,1699936384
349,baykit,61.67,96.37,-9.26,88,94,4.8,RU,1699936385
350,pringsewu,-5.3582,104.9744,34.56,46,94,1.79,ID,1699936386
351,port shepstone,-30.7414,30.455,17.62,66,100,2.82,ZA,1699936387
352,namioka,40.7072,140.5894,7.64,81,75,4.12,JP,1699936387
353,vila velha,-20.3297,-40.2925,24.97,87,0,6.69,BR,1699936388
354,ilulissat,69.2167,-51.1,-4.99,68,100,4.12,GL,1699936389
355,aksu,41.1231,80.2644,7.97,32,0,1.82,CN,1699936349
356,marzuq,14.4,46.4667,22.5,50,74,1.51,YE,1699936390
357,tazovskiy,67.4667,78.7,-17.81,98,61,3.68,RU,1699936391
358,rockhampton,-23.3833,150.5,33.94,27,0,2.06,AU,1699936202
359,cacequi,-29.8836,-54.825,19.55,98,100,3.08,BR,1699936393
360,vila,42.0304,-8.1588,10.94,99,100,2.9,PT,1699936394
361,tautira,-17.7333,-149.15,26.03,87,95,5.67,PF,1699936395
362,vanimo,-2.6741,141.3028,29.4,74,94,2.36,PG,1699936396
363,luganville,-15.5333,167.1667,24.35,81,100,5.78,VU,1699936396
364,manokwari,-0.8667,134.0833,28.54,76,85,1.95,ID,1699936397
365,young,-32.6833,-57.6333,14.67,88,98,3.62,UY,1699936398
366,thunder bay,48.4001,-89.3168,-4.01,93,20,1.54,CA,1699936398
367,ocala,29.1872,-82.1401,18.3,86,100,3.6,US,1699936399
368,cairns,-16.9167,145.7667,35.04,46,79,7.72,AU,1699936400
369,lamar,33.6668,-95.5836,11.95,70,0,2.57,US,1699936401
370,talnakh,69.4865,88.3972,-22.18,94,42,1.82,RU,1699936403
371,hervey bay,-25.2986,152.8535,24.02,70,0,8.31,AU,1699936403
372,svetlogorsk,52.6333,29.7333,1.22,95,31,2.95,BY,1699936404
373,verkhnevilyuysk,63.4453,120.3167,-9.19,94,100,2.45,RU,1699936405
374,beaverlodge,55.2166,-119.4361,-7.36,94,86,1.77,CA,1699936406
375,amapa,1.0,-52.0,21.27,96,49,0.46,BR,1699936406
376,nanortalik,60.1432,-45.2371,-3.02,94,100,2.78,GL,1699936407
377,itarema,-2.9248,-39.9167,26.19,78,80,5.75,BR,1699936408
378,port-cartier,50.0334,-66.8654,-4.18,91,88,1.87,CA,1699936408
379,charters towers,-20.1,146.2667,35.04,16,0,8.59,AU,1699936409
380,komsomolskoye,55.2567,47.5461,5.71,79,99,6.62,RU,1699936410
381,mackay,-21.15,149.2,30.93,57,0,3.67,AU,1699936410
382,morro bay,35.3658,-120.8499,13.52,86,67,1.79,US,1699936411
383,susanville,40.4163,-120.653,6.91,52,0,2.06,US,1699936411
384,gizo,-8.103,156.8419,27.58,76,100,4.17,SB,1699936412
385,talara,-4.5772,-81.2719,20.78,84,18,7.88,PE,1699936161
386,jieshi,22.8134,115.8257,21.34,61,93,2.89,CN,1699936414
387,portland,45.5234,-122.6762,9.19,90,0,1.79,US,1699936159
388,ekhabi,53.5102,142.9671,-3.83,79,100,6.61,RU,1699936415
389,kita,13.0349,-9.4895,20.96,16,25,2.0,ML,1699936416
390,hillsboro,45.5229,-122.9898,8.88,81,0,1.54,US,1699936417
391,chulym,55.0997,80.9572,1.58,86,100,2.12,RU,1699936417
392,saskylakh,71.9167,114.0833,-19.99,94,100,2.18,RU,1699936419
393,kohlu,29.8962,69.252,18.19,25,0,0.75,PK,1699936419
394,panama city,8.9936,-79.5197,26.74,89,40,2.06,PA,1699936127
395,wanning,18.8003,110.3967,24.01,87,97,5.26,CN,1699936421
396,ulaangom,49.9811,92.0667,-2.92,81,78,0.34,MN,1699936421
397,clyde river,70.4692,-68.5914,-14.87,85,100,4.63,CA,1699936422
398,naze,28.3667,129.4833,18.51,57,82,3.31,JP,1699936423
399,glyadyanskoye,54.9075,65.0883,4.93,78,100,9.03,RU,1699936424
400,jambi,-1.6,103.6167,27.96,85,100,0.83,ID,1699936424
401,manado,1.487,124.8455,33.43,58,40,3.6,ID,1699936130
402,kigoma,-4.8769,29.6267,20.33,94,75,0.0,TZ,1699936427
403,lagunas,-5.2269,-75.6753,25.23,86,86,0.83,PE,1699936427
404,joshimath,30.5667,79.5667,17.29,24,99,2.38,IN,1699936428
405,yashan,22.1975,109.9419,19.85,68,43,4.1,CN,1699936429
406,bilecik,40.0,30.1667,8.38,94,22,1.28,TR,1699936429
407,borovoy,55.4333,86.0833,0.6,100,75,4.0,RU,1699936430
408,khandyga,62.6667,135.6,-24.46,98,58,0.92,RU,1699936430
409,vilhena,-12.7406,-60.1458,21.03,88,80,1.4,BR,1699936431
410,krasnoselkup,65.7,82.4667,-19.93,89,9,3.3,RU,1699936432
411,tanda,26.55,82.65,25.65,39,84,1.57,IN,1699936432
412,kachug,53.9606,105.8817,-3.03,69,100,0.59,RU,1699936433
413,victoria point,-27.5833,153.3,30.38,65,42,5.09,AU,1699936434
414,guinguineo,14.2667,-15.95,24.66,19,70,3.57,SN,1699936434
415,college,64.8569,-147.8028,-3.03,90,100,0.0,US,1699936436
416,amparafaravola,-17.5833,48.2167,25.84,60,42,0.87,MG,1699936436
417,villa bruzual,9.3328,-69.1208,24.87,85,93,1.12,VE,1699936437
418,miandrivazo,-19.5167,45.4667,26.83,56,0,1.53,MG,1699936437
419,terney,45.0503,136.6092,1.08,44,2,3.47,RU,1699936438
420,wamba,8.9333,8.6,24.22,39,93,0.8,NG,1699936439
421,shumskiy,54.8318,99.1328,3.01,59,100,3.82,RU,1699936439
422,agadez,19.75,10.25,18.56,22,0,4.13,NE,1699936440
423,arequipa,-16.3989,-71.535,17.56,56,1,1.26,PE,1699936357
424,autun,46.95,4.3,12.11,90,100,3.25,FR,1699936441
425,mbanza-ngungu,-5.25,14.8667,21.08,87,99,0.38,CD,1699936442
426,ginda,30.6945,78.4932,18.07,32,100,2.01,IN,1699936443
427,sargatskoye,55.6101,73.4972,3.31,82,100,5.19,RU,1699936443
428,kushima,31.4583,131.2333,16.89,53,51,2.64,JP,1699936444
429,lazaro cardenas,17.9583,-102.2,26.07,83,26,1.42,MX,1699936445
430,nagato,34.3833,131.2,14.73,54,17,5.24,JP,1699936445
431,mattru,7.6244,-11.8332,23.45,97,38,0.63,SL,1699936446
432,davenport,41.5236,-90.5776,5.58,63,0,0.0,US,1699936252
433,langarud,37.197,50.1535,14.03,62,3,0.67,IR,1699936447
434,flin flon,54.7682,-101.865,0.65,78,100,5.55,CA,1699936448
435,abu zabad,12.35,29.25,27.2,31,13,5.08,SD,1699936450
436,khorixas,-20.3667,14.9667,26.19,33,68,1.11,NA,1699936450
437,pocoes,-14.5297,-40.3653,16.79,97,40,1.47,BR,1699936451
438,beringovskiy,63.05,179.3167,-12.98,73,7,6.25,RU,1699936452
439,saint-joseph,-21.3667,55.6167,26.21,73,58,2.73,RE,1699936453
440,jurado,7.1053,-77.7641,25.58,94,65,0.43,CO,1699936453
441,winneba,5.3511,-0.6231,25.6,89,5,1.77,GH,1699936454
442,kuching,1.55,110.3333,34.01,62,40,2.06,MY,1699936455
443,abalak,58.1286,68.5944,2.42,89,100,5.26,RU,1699936455
444,jining,35.405,116.5814,10.87,27,35,2.68,CN,1699936233
445,esil,51.9556,66.4042,4.23,73,100,7.6,KZ,1699936394
446,west fargo,46.875,-96.9004,12.0,46,0,11.32,US,1699936457
447,karachi,24.9056,67.0822,24.9,38,40,1.54,PK,1699936289
448,kolaras,25.2333,77.6,23.83,37,100,2.46,IN,1699936459
449,okhotsk,59.3833,143.3,-14.35,77,70,6.2,RU,1699936440
450,vila franca do campo,37.7167,-25.4333,18.23,99,82,1.96,PT,1699936461
451,haines junction,60.7522,-137.5108,-7.03,93,100,0.51,CA,1699936463
452,houston,29.7633,-95.3633,16.28,90,100,6.17,US,1699936252
453,muros,42.7762,-9.0603,18.8,91,100,8.56,ES,1699936464
454,dakar,14.6937,-17.4441,23.49,68,30,8.6,SN,1699936465
455,kiama,-34.6833,150.8667,24.1,74,90,0.45,AU,1699936293
456,ciudad bolivar,8.1222,-63.5497,25.98,81,45,4.59,VE,1699936466
457,gwanda,-20.9333,29.0,17.96,80,64,6.13,ZW,1699936467
458,medeiros neto,-17.3739,-40.2206,21.11,83,43,1.76,BR,1699936468
459,mersing,2.4312,103.8405,30.95,74,40,2.57,MY,1699936469
460,palimbang,6.2106,124.1894,28.84,80,46,1.92,PH,1699936469
461,oakdale,44.963,-92.9649,9.73,47,0,3.09,US,1699936428
462,san isidro,-12.1167,-77.05,20.56,83,100,4.63,PE,1699936470
463,hanstholm,57.1167,8.6167,5.0,95,100,15.66,DK,1699936471
464,moranbah,-22.0016,148.0466,36.08,18,0,4.52,AU,1699936472
465,kudat,6.8837,116.8477,30.96,74,20,3.09,MY,1699936472
466,viransehir,37.2353,39.7631,17.61,49,100,2.71,TR,1699936473
467,danjiangkou,32.5428,111.5086,14.26,52,47,1.12,CN,1699936474
468,ulladulla,-35.35,150.4667,22.09,74,98,3.39,AU,1699936475
469,okha,53.5739,142.9478,-3.58,78,100,6.85,RU,1699936475
470,skoghall,59.3232,13.4655,0.31,80,100,5.14,SE,1699936476
471,znamenka,52.4167,41.4311,4.34,88,96,4.5,RU,1699936477
472,duran,-2.2,-79.8333,25.03,78,0,6.17,EC,1699936478
473,verkhnyaya inta,65.9811,60.3094,-6.32,79,100,4.7,RU,1699936478
474,moctezuma,29.8,-109.6667,18.61,48,26,2.54,MX,1699936479
475,tiarei,-17.5333,-149.3333,28.01,84,90,5.36,PF,1699936479
476,zaysan,47.4667,84.8667,3.01,64,97,3.72,KZ,1699936480
477,antalya,36.7741,30.7178,19.45,71,40,3.6,TR,1699936481
478,cumberland,35.0502,-78.8664,11.38,85,0,0.0,US,1699936481
479,amahai,-3.3333,128.9167,29.59,69,70,3.51,ID,1699936482
480,san,13.3034,-4.8956,24.07,16,1,3.37,ML,1699936378
481,palmas,-10.2128,-48.3603,27.93,74,0,2.57,BR,1699936483
482,saint-louis,16.3333,-15.0,23.8,17,44,3.84,SN,1699936484
483,sorong,-0.8833,131.25,29.52,69,80,4.0,ID,1699936485
484,luau,-10.7073,22.2247,18.8,86,99,1.37,AO,1699936485
485,hammerfest,70.6634,23.6821,-0.75,93,75,0.0,NO,1699936486
486,rafai,4.95,23.9167,21.25,98,100,1.65,CF,1699936487
487,ali-berdukovskiy,43.9895,41.7421,10.23,69,97,2.88,RU,1699936487
488,laguna,38.421,-121.4238,14.62,77,0,2.06,US,1699936488
489,ust-kuyga,70.0167,135.6,-17.4,94,100,3.47,RU,1699936489
490,aketi,2.7388,23.7833,21.57,100,100,0.08,CD,1699936489
491,guangyuan,32.442,105.823,13.29,67,85,1.77,CN,1699936490
492,challans,46.8436,-1.8749,13.87,83,100,5.99,FR,1699936490
493,mabaruma,8.2,-59.7833,25.01,88,30,1.76,GY,1699936491
494,pailon,-17.65,-62.75,28.5,44,74,3.76,BO,1699936492
495,ati,13.2154,18.3353,26.85,27,70,4.82,TD,1699936493
496,houma,29.5958,-90.7195,17.22,92,100,4.12,US,1699936496
497,guaitarilla,1.1386,-77.553,9.63,93,21,2.81,CO,1699936496
498,najran,17.4924,44.1277,16.36,44,20,1.35,SA,1699936406
499,huilong,31.8111,121.655,13.26,55,14,3.0,CN,1699936498
500,solano,38.2333,-121.9511,14.82,77,0,3.6,US,1699936499
501,comodoro rivadavia,-45.8667,-67.5,6.92,36,0,9.77,AR,1699936500
502,general cepeda,25.3833,-101.45,14.06,97,100,3.23,MX,1699936500
503,san cristobal,7.7669,-72.225,25.1,97,80,1.06,VE,1699936501
504,reyes,-14.3167,-67.3833,28.48,57,79,1.34,BO,1699936502
505,ocos,14.5094,-92.1933,26.1,82,94,2.01,GT,1699936502
506,porto novo,6.4965,2.6036,24.9,88,5,0.3,BJ,1699936503
507,ust-kut,56.7938,105.7672,-2.53,89,100,4.92,RU,1699936504
508,wagar,16.1525,36.2032,27.17,62,19,3.56,SD,1699936505
509,svetlyy,54.675,20.1347,5.2,96,100,5.93,RU,1699936506
510,labuhan,-6.8844,112.2051,30.84,64,42,4.76,ID,1699936507
511,tura,25.5198,90.2201,26.81,56,16,0.9,IN,1699936508
512,diego de almagro,-26.3667,-70.05,15.94,42,29,0.71,CL,1699936323
513,nosy varika,-20.5833,48.5333,25.96,71,49,1.86,MG,1699936510
514,bowral,-34.4667,150.4167,21.7,62,100,2.87,AU,1699936511
515,alofi,-19.0595,-169.9187,24.94,22,100,3.6,NU,1699936511
516,pachino,36.7186,15.0907,17.91,63,7,2.5,IT,1699936512
517,oranjestad,12.524,-70.027,28.28,87,30,11.31,AW,1699936513
518,kutum,14.2,24.6667,22.51,35,34,4.85,SD,1699936514
519,constancia,24.2231,-107.1869,22.44,75,2,2.99,MX,1699936515
520,gouyave,12.1646,-61.7296,26.43,89,40,5.66,GD,1699936516
521,channel-port aux basques,47.5702,-59.1367,2.1,69,78,2.2,CA,1699936518
522,mogadishu,2.0371,45.3438,25.93,94,20,1.03,SO,1699936372
523,nehe,48.4833,124.8333,-3.47,80,29,3.02,CN,1699936520
524,los llanos de aridane,28.6585,-17.9182,23.96,29,0,4.12,ES,1699936520
525,pitimbu,-7.4706,-34.8086,26.33,80,60,3.49,BR,1699936521
526,opochka,56.7105,28.6617,2.03,98,100,1.69,RU,1699936522
527,yining,29.0361,114.5636,16.28,45,0,0.35,CN,1699936523
528,banda aceh,5.5577,95.3222,26.37,87,100,3.92,ID,1699936523
529,yaan,7.3833,8.5667,24.41,82,92,0.81,NG,1699936524
530,mineiros,-17.5694,-52.5511,24.43,37,36,1.03,BR,1699936524
531,aksha,50.2814,113.2867,-1.59,60,25,2.26,RU,1699936525
532,kabo,7.6994,18.629,23.0,89,91,0.41,CF,1699936526
533,marystown,47.1666,-55.1483,-0.08,100,77,2.19,CA,1699936526
534,cascais,38.6979,-9.4215,16.39,93,53,4.02,PT,1699936527
535,hohhot,40.8106,111.6522,3.16,23,0,2.0,CN,1699936254
536,banmankhi,25.8833,87.1833,27.09,41,36,1.05,IN,1699936529
537,bonthe,7.5264,-12.505,25.32,89,74,1.66,SL,1699936529
538,orchard homes,46.8633,-114.0484,9.08,57,100,3.6,US,1699936530
539,cururupu,-1.8283,-44.8683,24.52,86,8,2.18,BR,1699936531
540,anadyr,64.75,177.4833,-14.72,77,4,11.62,RU,1699936532
541,sioux lookout,50.1001,-91.917,-0.96,93,40,2.06,CA,1699936532
542,iracoubo,5.4802,-53.2011,26.23,90,9,3.59,GF,1699936533
543,alta gracia,-31.6529,-64.4283,14.09,64,0,1.36,AR,1699936534
544,ponta delgada,37.7333,-25.6667,18.4,88,20,1.79,PT,1699936534
545,port lincoln,-34.7333,135.8667,17.28,67,53,4.68,AU,1699936536
546,nelson bay,-32.7167,152.15,27.03,79,52,10.28,AU,1699936536
547,tacuarembo,-31.7333,-55.9833,15.88,98,100,2.83,UY,1699936537
548,poronaysk,49.2167,143.1167,-2.6,75,36,4.21,RU,1699936538
